name,lon,lat
Seoul,127.024612,37.5326
Busan,129.066666,35.166668
Daegu,128.600006,35.866669
Gwangju,126.916664,35.166668
Ulsan,129.316666,35.549999
Incheon,126.705208,37.456257
Daejeon,127.385002,36.351002
Gyeongju,129.21167,35.84278
Pohang,129.36481,36.02917
